{
    "name": "Dorch Car Park",
    "longText": "dd",
    "reference": "dorch-car-park",
    "index": "advertise",
    "published": true,
    "unpublishedVersion": false,
    "publishedVersionNumber": 57,
    "unpublishedVersionNumber": 0,
    "properties": [{
        "propertyName": "Price",
        "propertyReference": "price",
        "propertyType": "Text",
        "publishedValue": null,
        "display": true,
        "listValue": [],
        "unpublishedValue": null
    }, {
        "propertyName": "Available",
        "propertyReference": "available",
        "propertyType": "Boolean",
        "publishedValue": "true",
        "display": true,
        "listValue": [],
        "unpublishedValue": null
    }],
    "locations": [{
        "name": null,
        "latitude": 50.71211965056588,
        "longitude": -2.46144879114604,
        "streetviewLatitude": null,
        "streetviewLongitude": null,
        "streetviewHeading": 0.7703923227326044,
        "streetviewPitch": 0.0,
        "primaryLocation": true,
        "reference": "b3206302-6f92-4de7-9059-9ec1d9658c61"
    }, {
        "name": "",
        "latitude": 50.71211965056593,
        "longitude": -2.4836360241172315,
        "streetviewLatitude": null,
        "streetviewLongitude": null,
        "streetviewHeading": 0.0,
        "streetviewPitch": 0.0,
        "primaryLocation": false,
        "reference": "d81c1c39-276a-45a4-ac0a-f9f6367deda2"
    }, {
        "name": null,
        "latitude": 50.712377809816736,
        "longitude": -2.4558697963950635,
        "streetviewLatitude": null,
        "streetviewLongitude": null,
        "streetviewHeading": 0.7703923227326044,
        "streetviewPitch": 0.0,
        "primaryLocation": false,
        "reference": "9d0c667c-b49c-47de-9336-459cc0c801bf"
    }, {
        "name": null,
        "latitude": 50.71259520597789,
        "longitude": -2.4529515529868604,
        "streetviewLatitude": null,
        "streetviewLongitude": null,
        "streetviewHeading": 0.7703923227326044,
        "streetviewPitch": 0.0,
        "primaryLocation": false,
        "reference": "76b718e0-a043-4652-8611-e73299a5c6f8"
    }, {
        "name": null,
        "latitude": 50.71097829789284,
        "longitude": -2.4564614284668096,
        "streetviewLatitude": null,
        "streetviewLongitude": null,
        "streetviewHeading": 0.0,
        "streetviewPitch": 0.0,
        "primaryLocation": false,
        "reference": "ad4d1cd5-f44d-4551-b050-1fa176dfcc23"
    }, {
        "name": "near town",
        "latitude": 50.723803329290455,
        "longitude": -2.4588646877441533,
        "streetviewLatitude": null,
        "streetviewLongitude": null,
        "streetviewHeading": 0.0,
        "streetviewPitch": 0.0,
        "primaryLocation": false,
        "reference": "539bf32e-37eb-4349-ac79-c835fda53678"
    }, {
        "name": "",
        "latitude": 50.71141310218788,
        "longitude": -2.4647011745605596,
        "streetviewLatitude": null,
        "streetviewLongitude": null,
        "streetviewHeading": 0.0,
        "streetviewPitch": 0.0,
        "primaryLocation": false,
        "reference": "5068d95c-72e8-4da0-9e7e-7376d3d5f0ab"
    }, {
        "name": null,
        "latitude": 50.711847902450025,
        "longitude": -2.5000634182129033,
        "streetviewLatitude": null,
        "streetviewLongitude": null,
        "streetviewHeading": 0.0,
        "streetviewPitch": 0.0,
        "primaryLocation": false,
        "reference": "40355daf-d245-4ec3-a5ef-91d6b7e909fd"
    }, {
        "name": null,
        "latitude": 50.7216042052941,
        "longitude": -2.541591973137315,
        "streetviewLatitude": null,
        "streetviewLongitude": null,
        "streetviewHeading": 78.56489536693806,
        "streetviewPitch": -0.41183305945753546,
        "primaryLocation": false,
        "reference": "b75376eb-dddd-45de-a912-2c3f4e3c19e8"
    }, {
        "name": null,
        "latitude": 50.715108775866696,
        "longitude": -2.5220360744629033,
        "streetviewLatitude": null,
        "streetviewLongitude": null,
        "streetviewHeading": 0.0,
        "streetviewPitch": 0.0,
        "primaryLocation": false,
        "reference": "6f4d2191-2a92-4de5-8401-28a1eff35a06"
    }, {
        "name": "well outta there",
        "latitude": 50.72489003504933,
        "longitude": -2.5673546779785283,
        "streetviewLatitude": null,
        "streetviewLongitude": null,
        "streetviewHeading": 0.0,
        "streetviewPitch": 0.0,
        "primaryLocation": false,
        "reference": "7735c314-c6af-4500-a45c-d09e28c85eb8"
    }, {
        "name": "out of town19",
        "latitude": 50.74401193125619,
        "longitude": -2.519976137939466,
        "streetviewLatitude": null,
        "streetviewLongitude": null,
        "streetviewHeading": 0.0,
        "streetviewPitch": 0.0,
        "primaryLocation": false,
        "reference": "f7f69e75-58a2-4fb7-b2c8-0310b91ba5f2"
    }, {
        "name": "south",
        "latitude": 50.69727989815562,
        "longitude": -2.491137026611341,
        "streetviewLatitude": null,
        "streetviewLongitude": null,
        "streetviewHeading": 0.0,
        "streetviewPitch": 0.0,
        "primaryLocation": false,
        "reference": "0443dbba-94fd-46a5-8e74-877df632b2ba"
    }, {
        "name": null,
        "latitude": 50.729019287077904,
        "longitude": -2.564264773193372,
        "streetviewLatitude": null,
        "streetviewLongitude": null,
        "streetviewHeading": 0.0,
        "streetviewPitch": 0.0,
        "primaryLocation": false,
        "reference": "5047dee3-550d-47f4-a752-63a4fc8711b6"
    }],
    "unpublishedLocations": [],
    "documentTypeReference": "car-parking-ticket-advertising",
    "documentTypeName": "Car Parking Ticket Advertising",
    "images": [],
    "files": []
}
